yaw,latitude,rotationMatrix_m2.1,rotationMatrix_m2.3,rotationMatrix_m2.2,rotationMatrix_m3.2,rotationMatrix_m1.1,rotationMatrix_m1.2,rotationMatrix_m1.3,rotationMatrix_m3.3,rotationMatrix_m3.1,roll,quaternion_x,quaternion_w,quaternion_z,quaternion_y,userAccel_x,userAccel_z,userAccel_y,longitude,velocity,altitude,magneticField_z,magneticField_y,magneticField_x,magneticField_accuracy,acceleration_z,acceleration_y,acceleration_x,acceleration_timestamp,rotationRate_y,rotationRate_z,rotationRate_x,pitch,timestamp
0.03765296075486579,59.40778311085336,-0.025875769555568695,0.7262981534004211,0.6868926286697388,-0.7263779044151306,0.9980500340461731,-0.02353224903345108,0.05781295523047447,0.6849442720413208,-0.05680272355675697,-0.08420575663780026,0.3956681605258427,0.917862677322311,0.0006383091257776101,-0.031218091131635962,0.0019200034439563751,0.023170650005340576,-0.015065431594848633,17.944938349803436,-1.0,25.16514778137207,0.0,0.0,0.0,-1,-0.66632080078125,-0.7394561767578125,-0.0525970458984375,768123.23362275,0.11520913243293762,0.08816633373498917,-0.046490378677845,0.8129211661139387,2024-03-15 12:39:04 +0000
-0.23025433862730868,59.40778311085336,0.22446990013122559,0.1806589663028717,0.9575884342193604,-0.2232275903224945,0.9574311375617981,-0.18219175934791565,-0.2239011824131012,0.9577215909957886,0.18149060010910034,0.22966046505202967,0.10261719680452756,0.9839641234443798,-0.10332227752284398,0.10299963157933881,-0.006371855735778809,-0.034008145332336426,0.031168535351753235,17.944938349803436,-1.0,25.16514778137207,0.0,0.0,0.0,-1,-0.9956512451171875,-0.1549072265625,0.228057861328125,768123.7311197501,-0.6155288815498352,-1.4631823301315308,-0.3464900851249695,0.18165640141874173,2024-03-15 12:39:04 +0000
-0.32588245990677345,59.40778311085336,0.3166433274745941,0.1474974900484085,0.9370066523551941,-0.2010456770658493,0.9376190304756165,-0.2856556475162506,-0.19817008078098297,0.9690062403678894,0.1435532122850418,0.20172694456208212,0.0888905660615503,0.9802591796744874,-0.1536070640089596,0.08715126167459497,0.022746682167053223,0.0007140636444091797,-0.018426641821861267,17.944938349803436,-1.0,25.16514778137207,0.0,0.0,0.0,-1,-0.9652099609375,-0.1635284423828125,0.22247314453125,768124.2385661667,-0.10681559145450592,0.7664616703987122,-0.025418613106012344,0.14803760633324797,2024-03-15 12:39:04 +0000
-0.23212128997257167,59.40778311085336,0.22201459109783173,0.261871337890625,0.9392192959785461,-0.29897964000701904,0.962805449962616,-0.16875503957271576,-0.21101528406143188,0.9417515397071838,0.1539975106716156,0.22042605380408742,0.14303371436543014,0.9802775604079255,-0.09965791124811615,0.09308914122603948,-0.02336268126964569,-0.008581042289733887,0.010803163051605225,17.944938349803436,-1.0,25.16514778137207,0.0,0.0,0.0,-1,-0.9489288330078125,-0.250274658203125,0.1878204345703125,768124.7460131667,0.008023830130696297,-0.09265904873609543,0.10713011771440506,0.26496070268109095,2024-03-15 12:39:04 +0000
-0.09937300434818508,59.40778311085336,0.08697707951068878,0.48103609681129456,0.8723756670951843,-0.48883190751075745,0.9846799969673157,-0.002030562609434128,-0.17435939610004425,0.8591874241828918,0.15113012492656708,0.20021630349403555,0.25155363943616915,0.9638779932811495,-0.023085814913273398,0.08442186886474991,-0.03724391758441925,-0.008946061134338379,0.04436001181602478,17.944938349803436,-1.0,25.16514778137207,0.0,0.0,0.0,-1,-0.8668670654296875,-0.4383392333984375,0.1309967041015625,768125.2435091251,1.478162169456482,0.8186460733413696,1.214996576309204,0.5018361914565311,2024-03-15 12:39:04 +0000
0.12022116308037874,59.40778311085336,-0.056580934673547745,0.8817185163497925,0.46837085485458374,-0.8700355291366577,0.9879257082939148,0.15384089946746826,-0.018324270844459534,0.4714200496673584,0.14422689378261566,0.038850801136753314,0.5118922790383331,0.8555287121122962,0.0614888295953632,0.0475002066466122,0.09356841444969177,0.02096545696258545,0.018894970417022705,17.944938349803436,-1.0,25.16514778137207,0.0,0.0,0.0,-1,-0.4440155029296875,-0.8647308349609375,0.109649658203125,768125.741005125,-0.43264877796173096,0.7914769053459167,0.8412194848060608,1.079492615526762,2024-03-15 12:39:04 +0000
0.6884539131269568,59.40778311085336,-0.28114140033721924,0.896767258644104,0.34171348810195923,-0.8789860010147095,0.9286321997642517,0.33258920907974243,0.1643979698419571,0.4108307361602783,0.24207808077335358,-0.3806442259988536,0.5422379579861374,0.8187149569510784,0.18740668046957099,0.023720131106321422,0.042266592383384705,-0.0810973048210144,-0.03829139471054077,17.944938349803436,-1.0,25.16514778137207,0.0,0.0,0.0,-1,-0.49822998046875,-0.9345245361328125,-0.11260986328125,768126.23850225,0.413703054189682,0.6878171563148499,0.2483288049697876,1.112408999272581,2024-03-15 12:39:04 +0000
1.4168440242229128,59.40778311085336,-0.4340045750141144,0.8983898758888245,0.06734892725944519,-0.9518176913261414,0.8677842020988464,0.29917797446250916,0.3967910408973694,0.18828891217708588,0.24205493927001953,-1.1277322100039011,0.6348516353897701,0.7285984142339484,0.2515729220440629,-0.053093750073701755,-0.010176211595535278,0.01621568202972412,0.03289604187011719,17.944938349803436,-1.0,25.16514778137207,0.0,0.0,0.0,-1,-0.17510986328125,-0.861907958984375,-0.4044189453125,768126.7359992501,0.10118968784809113,0.2799191176891327,0.6637039184570312,1.1160896406930312,2024-03-15 12:39:04 +0000
1.894978418139854,59.40778311085336,-0.2083388715982437,0.9755479097366333,-0.07000960409641266,-0.9437247514724731,0.9204453229904175,0.32323741912841797,0.21976804733276367,0.002902887761592865,0.3307194113731384,-1.557588274290591,0.7049028424003851,0.6806869611968787,0.19523522288978468,0.0407497786442589,-0.00919012725353241,0.021671295166015625,0.010200560092926025,17.944938349803436,-1.0,25.144916534423828,0.0,0.0,0.0,-1,0.0123291015625,-0.974517822265625,-0.2191009521484375,768127.2334954167,0.14001335203647614,-0.13569554686546326,0.017427118495106697,1.3492004160098232,2024-03-15 12:39:10 +0000
0.8837478369424051,59.40778311085336,-0.15836799144744873,0.9787949919700623,0.12992289662361145,-0.9422556757926941,0.9445704221725464,0.30866527557373047,0.11185897886753082,0.17160402238368988,0.2875869870185852,-0.5776701611957205,0.6409062937703267,0.7493493200128556,0.1558129377585962,0.058626860984362664,0.006756424903869629,-0.02787397801876068,0.005482614040374756,17.944938349803436,-1.0,25.144916534423828,0.0,0.0,0.0,-1,-0.1967926025390625,-0.9725341796875,-0.096282958984375,768127.7409424167,-0.05086483061313629,-0.055308274924755096,0.2291392832994461,1.3644939725818268,2024-03-15 12:39:10 +0000
0.7109752971099873,59.40778311085336,-0.1245453953742981,0.9816185832023621,0.144614115357399,-0.9439461827278137,0.9518459439277649,0.2967359721660614,0.07705216854810715,0.17460745573043823,0.2801387310028076,-0.415585476611659,0.6388709729876937,0.7535030174975726,0.1397742716335902,0.0673808108458411,-0.005192741751670837,-0.0179278701543808,-0.001322031021118164,17.944938349803436,-1.0,25.144916534423828,0.0,0.0,0.0,-1,-0.191619873046875,-0.98138427734375,-0.0818634033203125,768128.2384385418,-0.007569741923362017,-0.04010038822889328,-0.006471388041973114,1.378765231383268,2024-03-15 12:39:10 +0000
0.5836815653416414,59.4076363463508,-0.10841372609138489,0.9804593324661255,0.16415299475193024,-0.9496413469314575,0.9617498517036438,0.26689961552619934,0.061659350991249084,0.1868096888065338,0.25156259536743164,-0.3188061813487019,0.6345839385522619,0.760380339017879,0.12339657976122083,0.06243692952650413,-0.0015425905585289001,0.002895653247833252,0.0029048919677734375,17.945255460234307,0.0,22.68911361694336,0.0,0.0,0.0,-1,-0.1815643310546875,-0.977874755859375,-0.0633697509765625,768128.7359355417,-0.020157141610980034,-0.03637663647532463,-0.10283558815717697,1.3727828640291357,2024-03-15 12:39:12 +0000
0.5371777881617421,59.4076363463508,-0.10662225633859634,0.9780515432357788,0.17901654541492462,-0.9490387439727783,0.9640545845031738,0.2593812644481659,0.057620808482170105,0.20023752748966217,0.24337314069271088,-0.28019199168946457,0.6294442723109325,0.7653934873029519,0.11954750222472514,0.060672171903236274,-0.0035822205245494843,-0.009799465537071228,-6.377696990966797e-06,17.945255460234307,0.0,22.68911361694336,0.0,0.0,0.0,-1,-0.211029052734375,-0.97906494140625,-0.0619049072265625,768129.2334310417,-0.007050813175737858,-0.007894372567534447,0.02429453656077385,1.3608951302326644,2024-03-15 12:39:12 +0000
0.541747194907125,59.40759284427334,-0.10591252893209457,0.97867751121521,0.17599084973335266,-0.9505413770675659,0.9649304747581482,0.2559262812137604,0.058402836322784424,0.19692473113536835,0.24019095301628113,-0.2883111269764718,0.6308753746615422,0.7645008290975889,0.11832518885553711,0.059446671585498226,0.006065163761377335,0.013239577412605286,-0.005865275859832764,17.94531572611811,0.0,22.60628890991211,0.0,0.0,0.0,-1,-0.184326171875,-0.9846038818359375,-0.053375244140625,768129.7309280417,-0.0065583898685872555,0.010494539514183998,-0.016981210559606552,1.3639213070443135,2024-03-15 12:39:13 +0000
0.5519356337698641,59.40759284427334,-0.10985465347766876,0.9778061509132385,0.17840160429477692,-0.9504140019416809,0.96502685546875,0.2547276020050049,0.06194364279508591,0.20014534890651703,0.23802337050437927,-0.30014328935387813,0.6297777114511758,0.7654367762866529,0.11907654544832294,0.057509561288778974,0.0021139010787010193,0.001964360475540161,-0.007575929164886475,17.94531572611811,0.0,22.60628890991211,0.0,0.0,0.0,-1,-0.1990814208984375,-0.982818603515625,-0.0601348876953125,768130.2383752917,0.010001903399825096,0.003032941371202469,-0.025600790977478027,1.3597206918952447,2024-03-15 12:39:13 +0000
0.5621106325829037,59.40758907241691,-0.11351922899484634,0.9770539999008179,0.1802196353673935,-0.9503600597381592,0.9650872945785522,0.25364699959754944,0.06534313410520554,0.2027214914560318,0.23605063557624817,-0.3118147046344893,0.6289169521757703,0.7661639653137932,0.11980667118052316,0.055702015984650695,0.0008136928081512451,-0.0027531981468200684,-0.00011897087097167969,17.945096455531143,0.0,22.31332015991211,0.0,0.0,0.0,-1,-0.20458984375,-0.97784423828125,-0.06494140625,768130.7358712917,-0.0002820936497300863,0.0023328156676143408,0.00036485574673861265,1.35616018662109,2024-03-15 12:39:14 +0000
0.5295168582055788,59.40758907241691,-0.10942292958498001,0.9762540459632874,0.1869620382785797,-0.9504005312919617,0.9667084217071533,0.248564213514328,0.0607505664229393,0.2079363912343979,0.23130372166633606,-0.284248161765653,0.6268592389783186,0.7683760673991616,0.11647523456723988,0.055491434584563994,0.006352972239255905,-0.0036265701055526733,-0.006305217742919922,17.945096455531143,0.0,22.31332015991211,0.0,0.0,0.0,-1,-0.2092742919921875,-0.9823760986328125,-0.055206298828125,768131.2333667501,-0.01173904724419117,-0.006068827118724585,-0.04260838404297829,1.3524363086623805,2024-03-15 12:39:14 +0000
0.5162666675652011,59.4076009328099,-0.1074959933757782,0.9760017395019531,0.18938179314136505,-0.9508882761001587,0.9677619934082031,0.24483922123908997,0.059080250561237335,0.2095957249403,0.2277747392654419,-0.27474850836561937,0.6262556323652458,0.7692106406081487,0.1145119337743356,0.05482714359833221,-0.0011614784598350525,-0.008894741535186768,0.0020636320114135742,17.945187985913776,0.0,22.60634994506836,0.0,0.0,0.0,-1,-0.2176666259765625,-0.97314453125,-0.0618743896484375,768131.7308637501,-0.004453017842024565,-0.009257718920707703,0.007928689010441303,1.351274626147022,2024-03-15 12:39:14 +0000
0.4961226382183167,59.4076009328099,-0.10505423694849014,0.9753432273864746,0.19408538937568665,-0.9510070085525513,0.9689652919769287,0.24065843224525452,0.05647820234298706,0.21334418654441833,0.22376298904418945,-0.2587917109860773,0.6248071312125227,0.7707779738243196,0.11213107767062729,0.05425842051893883,0.0007683373987674713,0.002925589680671692,-0.0037522315979003906,17.945187985913776,0.0,22.60634994506836,0.0,0.0,0.0,-1,-0.2112274169921875,-0.9805908203125,-0.055999755859375,768132.238309875,-0.02114267647266388,-0.011153651401400566,-0.04359140992164612,1.3482711022456768,2024-03-15 12:39:14 +0000
0.4745309793912242,59.40762913791407,-0.10477078706026077,0.9733566045761108,0.20396146178245544,-0.9505983591079712,0.9706509709358215,0.23401448130607605,0.05544310063123703,0.2224932610988617,0.21647122502326965,-0.24421608532099215,0.6213284481709321,0.7741295849507059,0.10940844267110923,0.05200296581777389,-0.0013043805956840515,-0.003321349620819092,-0.004625082015991211,17.94524297119858,0.0,22.62069320678711,0.0,0.0,0.0,-1,-0.2269287109375,-0.977691650390625,-0.056793212890625,768132.735805875,-0.005732682067900896,0.0010060016065835953,-0.032303523272275925,1.3394413385366104,2024-03-15 12:39:15 +0000
0.3389977740732786,59.40762913791407,-0.11593672633171082,0.9372576475143433,0.3287962079048157,-0.9234828948974609,0.9789023995399475,0.1976679265499115,0.051744844764471054,0.34477636218070984,0.16825221478939056,-0.14897047169516112,0.5712551486624738,0.814321149027443,0.0962779347648872,0.03576825184346082,0.018526442348957062,-0.0727192759513855,-0.015455424785614014,17.94524297119858,0.0,22.62069320678711,0.0,0.0,0.0,-1,-0.41357421875,-0.9540557861328125,-0.030181884765625,768133.23330325,0.06279081851243973,0.004870487377047539,-0.3749412000179291,1.2146794398408145,2024-03-15 12:39:15 +0000
0.34914805222564577,59.40763877710272,-0.11994904279708862,0.9365147948265076,0.32947301864624023,-0.9218923449516296,0.9775364398956299,0.2038683295249939,0.053480662405490875,0.3465256989002228,0.17330524325370789,-0.15312577554809062,0.5704247868515664,0.8144838527233554,0.09939343032657345,0.03677929662291159,-0.001649368554353714,0.0010972917079925537,-0.002190828323364258,17.945173736678385,0.0,22.91628646850586,0.0,0.0,0.0,-1,-0.3468017578125,-0.9385528564453125,-0.055572509765625,768133.7307992501,0.010010594502091408,0.019374622032046318,0.02718110755085945,1.212554674294969,2024-03-15 12:39:16 +0000
0.35709181485817515,59.40763877710272,-0.12557637691497803,0.9332411289215088,0.336588054895401,-0.9296917915344238,0.9856115579605103,0.1496047079563141,0.07866603136062622,0.3505318760871887,0.11313921213150024,-0.2207613937621666,0.569756864119744,0.8174245325001127,0.0841610088546907,0.010543233140347713,-0.003868773579597473,-0.0030750930309295654,-0.003419637680053711,17.945173736678385,0.0,22.91628646850586,0.0,0.0,0.0,-1,-0.3546905517578125,-0.934967041015625,-0.0836334228515625,768134.2382447501,-0.00032544322311878204,0.022596029564738274,-0.10488424450159073,1.2033315795036024,2024-03-15 12:39:16 +0000
0.34447781528922283,59.40761618787367,-0.12531214952468872,0.9286050200462341,0.3492700755596161,-0.9231329560279846,0.9843401312828064,0.16073599457740784,0.07237685471773148,0.3639427423477173,0.12398118525743484,-0.19630766172544983,0.5637214327328225,0.8212114775502515,0.08708115264755457,0.015709817923470537,-0.004069693386554718,0.0076348185539245605,0.0036629438400268555,17.945112129690074,0.0,23.14895248413086,0.0,0.0,0.0,-1,-0.3582305908203125,-0.9255828857421875,-0.077606201171875,768134.7357407501,-0.027052516117691994,0.0016786889173090458,-0.026247942820191383,1.1906357961476517,2024-03-15 12:39:17 +0000
0.335522739623115,59.40761618787367,-0.1297861784696579,0.9190367460250854,0.37219229340553284,-0.9140220880508423,0.9841451048851013,0.16135834157466888,0.07363373041152954,0.38723328709602356,0.12088832259178162,-0.18790999618695547,0.5533352370687953,0.8281863665443143,0.0878861664945016,0.014264483387255418,-0.01967378705739975,-0.03831896185874939,0.006835758686065674,17.945112129690074,0.0,23.14895248413086,0.0,0.0,0.0,-1,-0.4253997802734375,-0.9139862060546875,-0.089569091796875,768135.2332376251,0.018368825316429138,0.006129434332251549,-0.016137370839715004,1.1656296242412854,2024-03-15 12:39:17 +0000
0.32508745442740383,59.40756078349371,-0.12421920895576477,0.9212698340415955,0.36855360865592957,-0.9158932566642761,0.9848403334617615,0.1590847373008728,0.06914892792701721,0.38272783160209656,0.12107484042644501,-0.1787456071047509,0.5553284711158215,0.8270614477355848,0.0856357029358917,0.01569590495109335,0.005779162049293518,0.01584559679031372,-0.007837951183319092,17.944959327595257,0.1899999976158142,23.39278793334961,0.0,0.0,0.0,-1,-0.3668212890625,-0.928436279296875,-0.0635833740234375,768135.730733625,-0.004348450805991888,-0.0011792270233854651,-0.02023821696639061,1.1713328625579105,2024-03-15 12:39:18 +0000
0.33853271180463507,59.40756078349371,-0.1377675086259842,0.9098975658416748,0.3912884593009949,-0.9076509475708008,0.9848417043685913,0.1518658846616745,0.08380702883005142,0.4062793552875519,0.10538966208696365,-0.20342602181585845,0.5448104995226551,0.8340278893142781,0.08681765977123192,0.00646939790751495,0.02263452112674713,0.07932937145233154,0.0010077357292175293,17.944959327595257,0.1899999976158142,23.39278793334961,0.0,0.0,0.0,-1,-0.319091796875,-0.9071197509765625,-0.06500244140625,768136.2381793751,-0.21914143860340118,0.07951828092336655,-0.4466390609741211,1.1430371919137297,2024-03-15 12:39:18 +0000
0.15224577910044898,59.40759892115314,-0.12054765224456787,0.6067883968353271,0.785669207572937,-0.6113117933273315,0.9927073121070862,0.09498284757137299,0.07423251867294312,0.791389524936676,-0.000687718391418457,-0.0935265699831074,0.32235404735418444,0.9446912618775374,0.057037285152837076,-0.01982664639774713,-0.06002958118915558,0.034813106060028076,0.07831543684005737,17.944970643164538,0.1899999976158142,23.06447982788086,0.0,0.0,0.0,-1,-0.7599639892578125,-0.53179931640625,-0.1243438720703125,768136.7356753751,-0.46357759833335876,-0.8309159874916077,-0.7133510708808899,0.6520138708190388,2024-03-15 12:39:19 +0000
-0.5632306870210355,59.40759892115314,0.5324341058731079,0.07456985861063004,0.8431804776191711,-0.20540651679039001,0.8246753811836243,-0.49684497714042664,-0.2702881097793579,0.9598873257637024,0.19085200130939484,0.27447614577390156,0.07349758277136181,0.9523318768901889,-0.27019967798994604,0.12105551188079469,0.04500427842140198,-0.09747040271759033,-0.09310903400182724,17.944970643164538,0.1899999976158142,23.06447982788086,0.0,0.0,0.0,-1,-1.0165863037109375,-0.191070556640625,0.299468994140625,768137.2331697918,-0.8339051008224487,-1.3097862005233765,-0.4571090638637543,0.07463914440417324,2024-03-15 12:39:19 +0000
-0.6508803630386139,59.40759892115344,0.6034899950027466,-0.0888632982969284,0.7924033999443054,0.06523306667804718,0.7950332760810852,-0.606499433517456,-0.00897480733692646,0.9960033893585205,0.06100720167160034,0.009010578693017444,-0.040701677492995095,0.9464988471392216,-0.31959612358009265,0.018484442263313004,0.002087850123643875,-0.04458498954772949,-0.08170697093009949,17.944970643164538,0.1899999976158142,23.064479902386665,0.0,0.0,0.0,-1,-1.04217529296875,0.0117950439453125,0.0103607177734375,768137.7306657917,0.0011960449628531933,-0.01650877669453621,0.2006227821111679,-0.08898066563697261,2024-03-15 12:39:20 +0000
-0.6498812509291992,59.40759892115344,0.6029434204101562,-0.08419376611709595,0.7933288216590881,0.06175874546170235,0.7956817746162415,-0.6056526899337769,-0.008678585290908813,0.9964116215705872,0.057877153158187866,0.008709619984446306,-0.03853997310525996,0.9467605478241186,-0.3191398701869367,0.017574596873798677,0.013309367001056671,0.0006077885627746582,-0.028209321200847626,17.944970643164538,0.1899999976158142,23.064479902386665,0.0,0.0,0.0,-1,-0.99517822265625,0.0560455322265625,0.0221099853515625,768138.238111375,-0.02854708395898342,-0.011118131689727306,-0.014462870545685291,-0.08429354903648525,2024-03-15 12:39:20 +0000
-0.652443393598742,59.40758810849835,0.6053621172904968,-0.0762539952993393,0.792289137840271,0.053271617740392685,0.7939871549606323,-0.6078158020973206,-0.01201443187892437,0.9970160126686096,0.055867284536361694,0.01204980579085683,-0.03421247902557766,0.9464793570971867,-0.3204448714530178,0.01793005719771267,0.01241492759436369,0.0061866044998168945,-0.031072787940502167,17.944952035339497,0.3400000035762787,22.85628898255527,0.0,0.0,0.0,-1,-0.9945831298828125,0.0433197021484375,0.0244903564453125,768138.735607375,0.05298391357064247,0.012451522052288055,-0.027652107179164886,-0.07632809276192896,2024-03-15 12:39:21 +0000
-0.6596563330224834,59.40758810849835,0.6111046671867371,-0.07531671226024628,0.7879585027694702,0.05341831222176552,0.7897048592567444,-0.6134068369865417,-0.0099159125238657,0.9971103668212891,0.05401311069726944,0.009944322929832933,-0.03404414281567283,0.9453536781385559,-0.32382365289792414,0.016906112698659926,0.039202164858579636,0.0069370269775390625,-0.028136588633060455,17.944952035339497,0.3400000035762787,22.85628898255527,0.0,0.0,0.0,-1,-0.990692138671875,0.048095703125,0.051422119140625,768139.24305175,0.03768472373485565,0.024402381852269173,-0.07405893504619598,-0.07538809899734152,2024-03-15 12:39:21 +0000
-0.6562735924002026,59.407592718545104,0.6085302829742432,-0.0732351541519165,0.7901440262794495,0.046114031225442886,0.7912496328353882,-0.6111841201782227,-0.019445639103651047,0.9971250891685486,0.06012500450015068,0.019499231808154778,-0.03154552342699019,0.9458487819699801,-0.3223862139706203,0.0210315447446071,0.0006349664181470871,-0.004141390323638916,-0.008553199470043182,17.94495136478724,0.44999998807907104,22.802944256924093,0.0,0.0,0.0,-1,-1.0017242431640625,0.0643310546875,0.019775390625,768139.74054675,0.02628946118056774,-0.0010457938769832253,-0.011233826167881489,-0.07330077323965928,2024-03-15 12:39:22 +0000
-0.6563449529663758,59.407592718545104,0.6086218357086182,-0.07244707643985748,0.7901461720466614,0.04465329274535179,0.7911334037780762,-0.6112897396087646,-0.02080441080033779,0.9971552491188049,0.06072467565536499,0.02086073406354089,-0.03095149891678435,0.9458376681199012,-0.32244211046228766,0.0215494387121759,0.005333935841917992,-0.0026158690452575684,-0.013410881161689758,17.94495136478724,0.44999998807907104,22.802944256924093,0.0,0.0,0.0,-1,-1.000396728515625,0.058380126953125,0.0264434814453125,768140.23804275,0.00392301008105278,-0.000802624155767262,0.004591081291437149,-0.07251060430801848,2024-03-15 12:39:22 +0000
-0.6533276707298292,59.40759607130636,0.6063182950019836,-0.07053494453430176,0.7920877933502197,0.043297670781612396,0.7929964661598206,-0.608869731426239,-0.020841030403971672,0.9972915649414062,0.05945450812578201,0.020894590008604424,-0.03007122292688529,0.9463583427925872,-0.32101686524090145,0.02121171712630625,0.004793774336576462,-0.00737762451171875,-0.007180504500865936,17.944959243776225,0.6800000071525574,22.653225020505488,0.0,0.0,0.0,-1,-1.0028533935546875,0.064178466796875,0.0236663818359375,768140.7355377501,0.023204701021313667,0.005240130238234997,-0.02472582273185253,-0.07059356191739816,2024-03-15 12:39:23 +0000
-0.6541819939543427,59.40759607130636,0.6070159673690796,-0.07003859430551529,0.7915972471237183,0.04124125465750694,0.7923230528831482,-0.6096498966217041,-0.02347869612276554,0.9972679615020752,0.06128469109535217,0.023538670199689613,-0.029401732853242067,0.9462014967385741,-0.3214605795416614,0.022395702138608992,0.0033768098801374435,-0.0028693675994873047,-0.009934283792972565,17.944959243776225,0.6800000071525574,22.653225020505488,0.0,0.0,0.0,-1,-0.9999847412109375,0.0601348876953125,0.02679443359375,768141.2429826667,-0.003258918644860387,-0.0013019945472478867,-0.01244986243546009,-0.07009598609707504,2024-03-15 12:39:23 +0000
-0.6545512319896639,59.40759607130636,0.6073331832885742,-0.06945334374904633,0.7914054989814758,0.040097832679748535,0.7920401692390442,-0.6099749803543091,-0.024553263559937477,0.9972829818725586,0.061796389520168304,0.02461518503906211,-0.028946849656932252,0.9461406944564295,-0.3216509328125534,0.022816282653923138,0.0058575402945280075,-0.0022745132446289062,-0.009440578520298004,17.944959243776225,0.0,22.653225020505488,0.0,0.0,0.0,-1,-0.9988250732421875,0.0601348876953125,0.0296173095703125,768141.7305266667,-0.004323462024331093,0.00033983890898525715,-0.0005469016032293439,-0.06950930141407832,2024-03-15 12:39:24 +0000
-0.6547543850423067,59.40759607130636,0.6075407862663269,-0.06833898276090622,0.7913432121276855,0.038851797580718994,0.7918977737426758,-0.6101365685462952,-0.025127027183771133,0.9973456859588623,0.06158020719885826,0.02518857068529462,-0.028323721695408793,0.9461219851835371,-0.3217548416517755,0.02291121887486826,0.00413937121629715,-0.0027611255645751953,-0.007914230227470398,17.944959243776225,0.0,22.653225020505488,0.0,0.0,0.0,-1,-1.0007781982421875,0.0604705810546875,0.029083251953125,768142.2379715,0.0019184809643775225,0.0024041268043220043,-0.004484814591705799,-0.06839228787570742,2024-03-15 12:39:24 +0000
-0.6546183385857357,59.40759607130636,0.6074679493904114,-0.06749894469976425,0.7914711833000183,0.038420140743255615,0.7920162677764893,-0.6099978089332581,-0.02475871331989765,0.9974120855331421,0.06077001243829727,0.02481785458479867,-0.02798647016748821,0.9461632807576982,-0.321684891130452,0.022598827262236356,0.002630852162837982,-0.0012145638465881348,-0.007364116609096527,17.944959243776225,0.0,22.653225020505488,0.0,0.0,0.0,-1,-0.997955322265625,0.05938720703125,0.0286865234375,768142.7354655,-0.00176773511338979,0.0014266979414969683,-0.008578801527619362,-0.06755030421379214,2024-03-15 12:39:25 +0000
-0.6547368402787365,59.40759607130636,0.6075949668884277,-0.06668604165315628,0.7914425134658813,0.03783711418509483,0.7919630408287048,-0.6100713014602661,-0.024647604674100876,0.9974695444107056,0.06019040569663048,0.02470510502020777,-0.027617727140495082,0.9461599723837808,-0.3217390262481728,0.022416402486294625,0.001795915886759758,-0.0025762319564819336,-0.006154477596282959,17.944959243776225,0.0,22.653225020505488,0.0,0.0,0.0,-1,-1.0011444091796875,0.0609283447265625,0.0250091552734375,768143.2329594167,-0.003314317436888814,-0.0025256150402128696,0.0003163889632560313,-0.06673556386258339,2024-03-15 12:39:25 +0000
-0.6550022862415177,59.40759607130636,0.6078381538391113,-0.06586873531341553,0.7913243174552917,0.036761850118637085,0.7917729616165161,-0.61029052734375,-0.02532128058373928,0.9975069761276245,0.06023640185594559,0.02537911382768643,-0.027118684776453836,0.9461243026436731,-0.32187331104110123,0.022607410615679738,0.003273729234933853,-0.0005246400833129883,-0.003948628902435303,17.944959243776225,0.0,22.653225020505488,0.0,0.0,0.0,-1,-0.99951171875,0.0623779296875,0.0270538330078125,768143.7304534167,-0.002810125704854727,0.00020942511036992073,-0.006838205270469189,-0.06591646157770385,2024-03-15 12:39:26 +0000
-0.655330188466997,59.40759607130636,0.6081190705299377,-0.06533238291740417,0.7911528944969177,0.03628114238381386,0.7915775775909424,-0.6105414032936096,-0.025380725041031837,0.9975407123565674,0.05996815860271454,0.025437806434897518,-0.026851191069405318,0.9460802377276972,-0.3220288390389467,0.022553287060395718,0.0018104761838912964,-0.0016962885856628418,-0.00441935658454895,17.944959243776225,0.0,22.653225020505488,0.0,0.0,0.0,-1,-0.999755859375,0.060943603515625,0.0272216796875,768144.2378977917,0.0019807585049420595,0.0024256506003439426,0.0012197000905871391,-0.06537894623767808,2024-03-15 12:39:26 +0000
-0.6554929463181308,59.40759607130636,0.6082634925842285,-0.06493944674730301,0.7910742163658142,0.03572767972946167,0.7914614677429199,-0.6106759309768677,-0.025760864838957787,0.9975566267967224,0.06003571301698685,0.025818221347946244,-0.02660177136628047,0.9460565936516753,-0.32211059431337363,0.02267215687636604,0.0020406916737556458,-0.003145277500152588,-0.0058574676513671875,17.944959243776225,0.0,22.653225020505488,0.0,0.0,0.0,-1,-1.0006866455078125,0.0594024658203125,0.0291748046875,768144.7353907917,-0.0032072649337351322,-0.0029724566265940666,-0.003869404084980488,-0.06498517612733927,2024-03-15 12:39:27 +0000
-0.6554850840959376,59.40759607130636,0.6082723140716553,-0.06455941498279572,0.7910985946655273,0.03530066832900047,0.791459858417511,-0.6106692552566528,-0.025967855006456375,0.9975759387016296,0.05996758118271828,0.02602507645951848,-0.026388350779792808,0.9460622399028086,-0.3221092446085398,0.022708715510659498,0.003557944670319557,-0.0020425915718078613,-0.0032649189233779907,17.944959243776225,0.0,22.653225020505488,0.0,0.0,0.0,-1,-0.999053955078125,0.062225341796875,0.02886962890625,768145.2328844167,0.0029727427754551172,0.0006869111675769091,-0.0022092657163739204,-0.06460434961213052,2024-03-15 12:39:27 +0000
-0.6550878099629887,59.40759607130636,0.6079765558242798,-0.06408451497554779,0.7913644313812256,0.035318683832883835,0.7917460203170776,-0.6103236675262451,-0.025362776592373848,0.9976221323013306,0.05918349325656891,0.02541775359018553,-0.026265423554509403,0.9461411724224369,-0.3219129104371909,0.02233976000715408,0.0009739343076944351,-0.0014775991439819336,-0.002759493887424469,17.944959243776225,0.0,22.653225020505488,0.0,0.0,0.0,-1,-0.9990692138671875,0.0612335205078125,0.0276336669921875,768145.7303774167,-0.0024678183253854513,-0.00042234896682202816,-0.005831063259392977,-0.0641284568343446,2024-03-15 12:39:28 +0000
-0.6551420856265945,59.40759607130636,0.6080363988876343,-0.06365200132131577,0.7913533449172974,0.03524414449930191,0.7917457222938538,-0.610342264175415,-0.024919647723436356,0.9976609945297241,0.05856975540518761,0.024972878040172165,-0.026131345815288226,0.946144816303549,-0.3219324011296948,0.02206041805221052,0.0021952614188194275,-0.004185318946838379,-0.003150954842567444,17.944959243776225,0.0,22.653225020505488,0.0,0.0,0.0,-1,-1.0021209716796875,0.060577392578125,0.0269622802734375,768146.2378205417,-0.0017616053810343146,0.0007741973968222737,-0.0029037045314908028,-0.06369506186766587,2024-03-15 12:39:28 +0000
-0.6556273479226566,59.40759607130636,0.6084234714508057,-0.06357152760028839,0.7910622954368591,0.03486142307519913,0.7914227843284607,-0.6107414960861206,-0.025394374504685402,0.997654139995575,0.05891430377960205,0.02544859039189276,-0.026011210283205903,0.9460627843488341,-0.32216808801947733,0.02227882671458783,0.004024611786007881,-0.002361118793487549,-0.0033451467752456665,17.944959243776225,0.0,22.653225020505488,0.0,0.0,0.0,-1,-0.99871826171875,0.0598602294921875,0.0287628173828125,768146.7353135417,-9.174598380923271e-05,-0.000995695125311613,-0.005266465246677399,-0.06361442714205805,2024-03-15 12:39:29 +0000
-0.6557905443935288,59.40759607130636,0.6085599660873413,-0.06338156014680862,0.7909725904464722,0.03459395095705986,0.7913157343864441,-0.6108728647232056,-0.02557000145316124,0.9976617693901062,0.058943238109350204,0.025624320614834144,-0.025891009756030328,0.9460379035147206,-0.3222473609500263,0.02233347103119242,0.0025367271155118942,-0.002719700336456299,-0.0011715292930603027,17.944959243776225,0.0,22.653225020505488,0.0,0.0,0.0,-1,-1.000152587890625,0.0613555908203125,0.0284423828125,768147.232806875,0.0026946603320538998,-0.0006341449916362762,-0.006290170829743147,-0.06342407057424722,2024-03-15 12:39:29 +0000
-0.6559975191767652,59.40759607130636,0.6087354421615601,-0.06307527422904968,0.790861964225769,0.03430026397109032,0.7911902666091919,-0.6110326051712036,-0.0256339218467474,0.9976795315742493,0.05881393700838089,0.025687894263865117,-0.02573324699644079,0.9460089837916147,-0.32234580256118656,0.022316877261013418,0.0018166769295930862,-0.004197299480438232,-0.002726815640926361,17.944959243776225,0.0,22.653225020505488,0.0,0.0,0.0,-1,-1.0006256103515625,0.0605010986328125,0.0272674560546875,768147.730299875,0.0006820284761488438,0.0007022238569334149,0.000818105589132756,-0.06311716821056562,2024-03-15 12:39:30 +0000
-0.655832128149878,59.40759607130636,0.6086122393608093,-0.06287769973278046,0.7909725308418274,0.03408956155180931,0.7912883162498474,-0.6109012961387634,-0.025738602504134178,0.9976893067359924,0.05877058953046799,0.025792490686632336,-0.02562457118114565,0.9460378536609689,-0.32226870767764454,0.022332401528825242,0.001711999997496605,-0.0022801756858825684,-0.000698186457157135,17.944959243776225,0.0,22.653225020505488,0.0,0.0,0.0,-1,-0.998870849609375,0.0610504150390625,0.026458740234375,768148.2377422501,0.002335651544854045,0.0028472216799855232,-0.003185909939929843,-0.06291920315001949,2024-03-15 12:39:30 +0000
-0.655177790717638,59.40759607130636,0.6081129312515259,-0.06239720433950424,0.7913944721221924,0.03408152610063553,0.7917273044586182,-0.610355019569397,-0.025192752480506897,0.9977334141731262,0.058021850883960724,0.025244618774676274,-0.02549225196093772,0.9461573507196455,-0.3219517136900202,0.02198751578611885,-0.002167198807001114,-0.0038687586784362793,-0.0013010650873184204,17.944959243776225,0.0,22.653225020505488,0.0,0.0,0.0,-1,-1.0011444091796875,0.061737060546875,0.0240631103515625,768148.7352342501,-0.008570216596126556,-0.001622033421881497,-0.001834467751905322,-0.06243776068969933,2024-03-15 12:39:31 +0000
-0.6552051394971562,59.40759607130636,0.608130693435669,-0.06249958276748657,0.7913727760314941,0.034347645938396454,0.7917267680168152,-0.6103682518005371,-0.02488766796886921,0.9977346658706665,0.057843178510665894,0.02493900119320775,-0.025589691090942168,0.946154689904331,-0.3219608164719868,0.02185975575944594,0.0027918145060539246,-0.003257155418395996,-0.002700444310903549,17.944959243776225,0.0,22.653225020505488,0.0,0.0,0.0,-1,-1.0007171630859375,0.060699462890625,0.028533935546875,768149.2327269167,0.0016439924947917461,-0.00019299844279885292,-2.1736719645559788e-05,-0.06254034308006604,2024-03-15 12:39:31 +0000
-0.6555176517103409,59.40759607130636,0.6083841323852539,-0.06233983486890793,0.7911906242370605,0.03383689373731613,0.7915036082267761,-0.6106328964233398,-0.025486066937446594,0.9977295398712158,0.058231085538864136,0.025538510516578395,-0.025413983956967524,0.9461004336574693,-0.32211615523200626,0.02212163483601975,0.0007285717874765396,-0.0033538341522216797,-0.0013352520763874054,17.944959243776225,0.0,22.653225020505488,0.0,0.0,0.0,-1,-1.000640869140625,0.060943603515625,0.026824951171875,768149.7302199167,-0.004562298767268658,-0.0017094521317631006,0.00033753871684893966,-0.06238028326623125,2024-03-15 12:39:32 +0000
-0.6557162139520863,59.40759607130636,0.6085413098335266,-0.06233520060777664,0.7910700440406799,0.03374312072992325,0.791374921798706,-0.6107942461967468,-0.025614356622099876,0.9977265000343323,0.05833672732114792,0.025667084206409105,-0.025388875550575632,0.946067069016509,-0.322211719223762,0.02218423189073221,0.00021881051361560822,-0.0037382841110229492,-0.0021088160574436188,17.944959243776225,0.0,22.653225020505488,0.0,0.0,0.0,-1,-1.002349853515625,0.0596160888671875,0.026275634765625,768150.237660625,0.006263245828449726,0.0006398903205990791,-0.0029825237579643726,-0.06237563697268156,2024-03-15 12:39:32 +0000
-0.6557728362308298,59.40759607130636,0.6085909605026245,-0.062208712100982666,0.7910418510437012,0.03348597139120102,0.7913276553153992,-0.6108449697494507,-0.025865495204925537,0.9977279305458069,0.05846056342124939,0.025918591342710087,-0.025287759797721802,0.9460573408460621,-0.32224153888260754,0.022283547998568572,-0.0008105244487524033,-0.0015091300010681152,-0.0032945796847343445,17.944959243776225,0.0,22.653225020505488,0.0,0.0,0.0,-1,-0.9998016357421875,0.0587921142578125,0.0252685546875,768150.735152625,0.0025833300314843655,-0.0023117829114198685,-0.0023586552124470472,-0.062248905041775576,2024-03-15 12:39:33 +0000
-0.6553497180680189,59.40759607130636,0.608260989189148,-0.06208312511444092,0.7913054823875427,0.03388788551092148,0.7916333675384521,-0.6104812622070312,-0.025086579844355583,0.9977556467056274,0.057751722633838654,0.025137716626368607,-0.025358665382991703,0.9461362151428429,-0.3220313683383591,0.02188857906941628,-0.0008403286337852478,-0.0023816823959350586,-0.0014142319560050964,17.944959243776225,0.0,22.653225020505488,0.0,0.0,0.0,-1,-0.9997406005859375,0.0610504150390625,0.0259857177734375,768151.2326445418,0.0007340076845139265,0.0028004231862723827,0.00013876328011974692,-0.062123072148544706,2024-03-15 12:39:33 +0000
-0.6555001340990569,59.40759607130636,0.6083812713623047,-0.062047988176345825,0.791215717792511,0.03415831923484802,0.7915710210800171,-0.6105824708938599,-0.02458503283560276,0.9977703094482422,0.057337477803230286,0.02463498449438944,-0.025421329158173266,0.9461180353771702,-0.32209611502950664,0.021647009838288413,-0.0005981773138046265,-0.0011920332908630371,0.000635053962469101,17.944959243776225,0.0,22.653225020505488,0.0,0.0,0.0,-1,-0.9981689453125,0.0625762939453125,0.0245361328125,768151.7301355418,-0.001522755017504096,-0.00011932710185647011,0.0002972214133478701,-0.06208787432072988,2024-03-15 12:39:34 +0000
-0.6557235948531795,59.40759607130636,0.6085488796234131,-0.062288567423820496,0.7910678386688232,0.033958353102207184,0.7913951873779297,-0.6107851266860962,-0.025201791897416115,0.9977399706840515,0.05798126012086868,0.02525350634806013,-0.025433316828532698,0.9460712384657151,-0.32220990740161615,0.02198117930677716,0.00015835650265216827,-0.0038927197456359863,-0.0013907961547374725,17.944959243776225,0.0,22.653225020505488,0.0,0.0,0.0,-1,-1.0022735595703125,0.0598602294921875,0.024749755859375,768152.2375774167,-0.004670306108891964,-0.0011510788463056087,0.001674233004450798,-0.06232891562902258,2024-03-15 12:39:34 +0000
-0.6559505395747763,59.40759607130636,0.6087226867675781,-0.062440425157547,0.790922224521637,0.033906735479831696,0.7912391424179077,-0.6109765768051147,-0.02546081505715847,0.9977238774299622,0.058287158608436584,0.025513362015825967,-0.025460935990510022,0.9460292428441543,-0.32232071443765903,0.022131445547589713,0.0018829740583896637,-0.003573119640350342,-0.001054372638463974,17.944959243776225,0.0,22.653225020505488,0.0,0.0,0.0,-1,-0.99993896484375,0.060272216796875,0.0272216796875,768152.7350684167,-5.151843652129173e-05,-0.0016236179508268833,0.0003028756473213434,-0.062481071887155515,2024-03-15 12:39:35 +0000
-0.6559164875056284,59.40759607130636,0.6087051033973694,-0.06219387426972389,0.790955126285553,0.03372880443930626,0.7912652492523193,-0.6109438538551331,-0.025436047464609146,0.9977399110794067,0.05811573192477226,0.025488145655427966,-0.02534849430183471,0.9460392296097327,-0.32230402163280475,0.022079365504599456,0.0020603276789188385,-0.0028704404830932617,-0.0009451508522033691,17.944959243776225,0.0,22.653225020505488,0.0,0.0,0.0,-1,-1.001068115234375,0.0609130859375,0.027252197265625,768153.2325590417,-0.003976889420300722,-0.0017058757366612554,-0.0017587114125490189,-0.06223404171940098,2024-03-15 12:39:35 +0000
-0.6556338268765255,59.40759607130636,0.6084790229797363,-0.062260702252388,0.7911238670349121,0.03409304469823837,0.7914648056030273,-0.6107051372528076,-0.024954205378890038,0.9977478981018066,0.05776479095220566,0.025005319730975507,-0.02546107081555083,0.9460888998202699,-0.322164257070439,0.0218581470895034,0.0014282800257205963,-0.0017027854919433594,-0.00021851807832717896,17.944959243776225,0.0,22.653225020505488,0.0,0.0,0.0,-1,-1.0004730224609375,0.0630035400390625,0.0263214111328125,768153.7300500417,-0.002033195225521922,0.001808509579859674,0.00023901363601908088,-0.06230099522671683,2024-03-15 12:39:36 +0000
-0.6550461827351726,59.40759607130636,0.608024001121521,-0.061997924000024796,0.7914942502975464,0.03435748443007469,0.7918688058853149,-0.6102101802825928,-0.02423710562288761,0.9977819323539734,0.05701529234647751,0.02428620767937494,-0.025458634314954133,0.9461957530323284,-0.32187687522606373,0.021468177290717785,-0.0005706846714019775,-0.005056202411651611,-0.000688161700963974,17.944959243776225,0.0,22.653225020505488,0.0,0.0,0.0,-1,-1.00262451171875,0.0609130859375,0.02410888671875,768154.2374908751,-0.007329350803047419,-0.0005747547838836908,-0.0049101561307907104,-0.06203770917737514,2024-03-15 12:39:36 +0000
-0.6557310440973814,59.40759607130636,0.6085585355758667,-0.062190037220716476,0.7910681962966919,0.03417767211794853,0.7914203405380249,-0.6107724905014038,-0.024715431034564972,0.9977582693099976,0.057535551488399506,0.024765897666469843,-0.025465080021648115,0.9460770471608577,-0.322207131457708,0.021734748323833188,0.0013618767261505127,-0.0016618967056274414,-0.00014785677194595337,17.944959243776225,0.0,22.653225020505488,0.0,0.0,0.0,-1,-1.000335693359375,0.0627899169921875,0.026214599609375,768154.734980875,0.003905183169990778,4.396657459437847e-06,-0.0033659308683127165,-0.062230194882050394,2024-03-15 12:39:38 +0000
-0.6561155959025444,59.40759607130636,0.608863115310669,-0.062180086970329285,0.7908346056938171,0.03421435505151749,0.791191816329956,-0.6110728979110718,-0.024606550112366676,0.9977615475654602,0.05745626986026764,0.024656759518626233,-0.025473773438039318,0.9460164837790893,-0.32238762289029166,0.021686415169040386,0.00020427443087100983,-0.0031081438064575195,0.0005792565643787384,17.944959243776225,0.0,22.653225020505488,0.0,0.0,0.0,-1,-1.001129150390625,0.0625762939453125,0.0249786376953125,768155.2324700417,0.004941951483488083,-0.00527573935687542,-0.005040260031819344,-0.06222022115691453,2024-03-15 12:39:38 +0000
-0.6563246249002274,59.40759607130636,0.6090265512466431,-0.06222901493310928,0.7907049059867859,0.03446028381586075,0.7910839319229126,-0.6112269163131714,-0.024248680099844933,0.9977672696113586,0.05720958858728409,0.02429815842117664,-0.025552522653626685,0.9459858397970187,-0.3224819573413659,0.021527349134080043,-0.0025506429374217987,-0.003987491130828857,-0.002002626657485962,17.944959243776225,0.0,22.653225020505488,0.0,0.0,0.0,-1,-1.0010833740234375,0.060791015625,0.0219879150390625,768155.7399100417,0.005593347363173962,-0.0003048770595341921,-0.0023026701528578997,-0.062269245846566026,2024-03-15 12:39:39 +0000
-0.6562792426486462,59.40759607130636,0.6090170741081238,-0.0615304671227932,0.7907668948173523,0.03354693576693535,0.7910882234573364,-0.6111975312232971,-0.02484182082116604,0.9977959990501404,0.057251349091529846,0.024891550184962814,-0.02512620488811494,0.9459983848370496,-0.3224674290850265,0.021694849802919226,0.0005030650645494461,-0.0034704208374023438,-0.0011972710490226746,17.944959243776225,0.0,22.653225020505488,0.0,0.0,0.0,-1,-1.0006256103515625,0.0606689453125,0.0243072509765625,768156.237400625,-0.0016870679100975394,-0.0020943169947713614,-0.00427709985524416,-0.061569355360981556,2024-03-15 12:39:39 +0000
-0.6555425526428357,59.40759607130636,0.6084216237068176,-0.06187036260962486,0.7911986112594604,0.0343165285885334,0.7915759086608887,-0.6105957627296448,-0.0240927804261446,0.9977933764457703,0.0568399503827095,0.024141370565128085,-0.02541615764878415,0.9461195306758811,-0.32210975638532874,0.021385439883522414,-0.003035612404346466,-0.0035188794136047363,0.0007211342453956604,17.944959243776225,0.0,22.653225020505488,0.0,0.0,0.0,-1,-1.0009918212890625,0.0615997314453125,0.022369384765625,768156.734890625,-0.004201191943138838,0.0053292266093194485,0.004265645518898964,-0.061909904798077835,2024-03-15 12:39:40 +0000
-0.6556343973297301,59.40759607130636,0.608492374420166,-0.06192087382078171,0.7911402583122253,0.03436833620071411,0.7915206551551819,-0.610668420791626,-0.024064915254712105,0.9977908730506897,0.05685184895992279,0.02411351980364138,-0.025443608608017566,0.946104091654048,-0.3221529098171876,0.02138156921720829,0.0007001366466283798,0.0017124414443969727,-0.0010688826441764832,17.944959243776225,0.0,22.653225020505488,0.0,0.0,0.0,-1,-0.995849609375,0.0616455078125,0.0243682861328125,768157.2323790417,0.0028663554694503546,0.0018328429432585835,-0.0028940739575773478,-0.06196051177637434,2024-03-15 12:39:40 +0000
-0.6560148983060554,59.40759607130636,0.6087957620620728,-0.06185673177242279,0.7909117937088013,0.03382458537817001,0.7912451028823853,-0.6109945774078369,-0.024834677577018738,0.9977760314941406,0.05743616819381714,0.024884895108540663,-0.025284811224737785,0.9460354964701786,-0.32234263959268855,0.021740951514789233,-0.002022748813033104,-0.004070281982421875,1.7605721950531006e-05,17.944959243776225,0.0,22.653225020505488,0.0,0.0,0.0,-1,-1.002227783203125,0.060760498046875,0.023284912109375,768157.7398190417,0.00010993354953825474,-0.002031143754720688,-0.002236836589872837,-0.06189624395503776,2024-03-15 12:39:41 +0000
-0.6541367481871139,59.40759607130636,0.6073469519615173,-0.06084685027599335,0.792103111743927,0.036381833255290985,0.7926980257034302,-0.6093021035194397,-0.019513307139277458,0.9979563355445862,0.05253066122531891,0.0195507751689338,-0.02568358736895701,0.9464087166063463,-0.32138575273259357,0.019030881762709374,-0.008999964222311974,-0.003752589225769043,-0.015329942107200623,17.944959243776225,0.0,22.653225020505488,0.0,0.0,0.0,-1,-1.0055084228515625,0.0440216064453125,0.0073089599609375,768158.23730875,-0.02704698219895363,-0.02544512040913105,0.013605007901787758,-0.06088445907875892,2024-03-15 12:39:41 +0000
-0.6500469358014916,59.40759607130636,0.604288637638092,-0.055569954216480255,0.7948253750801086,0.030109139159321785,0.7950544953346252,-0.6060909628868103,-0.02328689582645893,0.9981831908226013,0.052189454436302185,0.023325046973218584,-0.022615946173641682,0.9471092567647998,-0.31949310044903306,0.01992281808535485,-0.009782828390598297,-0.006257057189941406,0.010973569005727768,17.944959243776225,0.0,22.653225020505488,0.0,0.0,0.0,-1,-1.0044708251953125,0.0653228759765625,0.0139923095703125,768158.73479675,0.10825224965810776,-0.0316442996263504,0.11724226921796799,-0.05559858977865545,2024-03-15 12:39:42 +0000
-0.6612019498941551,59.40759607130636,0.6132457256317139,-0.0516691617667675,0.7882004976272583,0.03013092651963234,0.7885862588882446,-0.6146805286407471,-0.017308998852968216,0.9985142350196838,0.04540298506617546,0.017333016864391357,-0.021630545028485656,0.9454233734020282,-0.32470273978949094,0.01658304259426521,0.017084350809454918,-0.003087937831878662,0.009549044072628021,17.944959243776225,0.0,22.653225020505488,0.0,0.0,0.0,-1,-1.0006866455078125,0.06329345703125,0.03271484375,768159.2322857501,0.010355215519666672,-0.01193416491150856,0.01591743342578411,-0.05169218230785102,2024-03-15 12:39:42 +0000
-0.6531620332053678,59.40766122487625,0.6066203713417053,-0.05960012972354889,0.7927544713020325,0.03759632259607315,0.7934845089912415,-0.6083806157112122,-0.015982741490006447,0.998094379901886,0.04892995208501816,0.0160118889034361,-0.02566942943126567,0.9466168214258531,-0.3208798136860034,0.01714333870572026,-0.0020514298230409622,-0.007017314434051514,-0.0009301416575908661,17.94497525102965,0.008574808026183897,22.489030180498958,0.0,0.0,0.0,-1,-1.0042724609375,0.06024169921875,0.0162811279296875,768159.7297737501,0.016396330669522285,0.06619152426719666,-0.003739891340956092,-0.05963547159400003,2024-03-15 12:39:43 +0000
-0.6517694847541435,59.40766122487625,0.6054940819740295,-0.06019698083400726,0.7935699820518494,0.03821186721324921,0.7943310737609863,-0.607278048992157,-0.01586218550801277,0.9980604648590088,0.04914405569434166,0.015891674820850427,-0.025983721411157203,0.9468317770263465,-0.32021847237836687,0.017164148804094167,0.0017922688275575638,-0.001741170883178711,0.0011127777397632599,17.94497525102965,0.008574808026183897,22.489030180498958,0.0,0.0,0.0,-1,-1.00067138671875,0.0605010986328125,0.0169677734375,768160.2372105,0.002603303175419569,0.0026707658544182777,0.006273543927818537,-0.060233396397814734,2024-03-15 12:39:43 +0000
-0.6518828187956899,59.40766129907268,0.6055519580841064,-0.061067041009664536,0.7934593558311462,0.03743140771985054,0.7941315770149231,-0.607471227645874,-0.018270712345838547,0.9979664087295532,0.05159353092312813,0.01830589686574839,-0.02600884230303681,0.9467784779965475,-0.32030278861221473,0.018447884978038797,0.004388626664876938,0.000880897045135498,-0.003602501004934311,17.944975203246003,0.00929584428315296,22.510217254050076,0.0,0.0,0.0,-1,-0.996795654296875,0.05780029296875,0.0240325927734375,768160.7346985,0.009060482494533062,-0.008569128811359406,0.006892744451761246,-0.06110506113643633,2024-03-15 12:39:44 +0000
-0.6524379977069399,59.40766129907268,0.6059755086898804,-0.061518412083387375,0.7931009531021118,0.03709958866238594,0.793732225894928,-0.6079592704772949,-0.019356485456228256,0.9979182481765747,0.052752334624528885,0.01939443549797498,-0.026043339012426083,0.9466720053692578,-0.3205795674830584,0.019042716183129648,0.00842980481684208,-0.014502406120300293,-0.008555211126804352,17.944975203246003,0.00929584428315296,22.510217254050076,0.0,0.0,0.0,-1,-1.01092529296875,0.0522308349609375,0.027984619140625,768161.23218625,-0.0699552595615387,0.0053409393876791,0.029106486588716507,-0.06155728049712732,2024-03-15 12:39:44 +0000
-0.6507246090653463,59.40766132872097,0.6046796441078186,-0.059783387929201126,0.7942219376564026,0.037720199674367905,0.7949517965316772,-0.6064558625221252,-0.016214726492762566,0.9980796575546265,0.04913407564163208,0.016244493936291474,-0.025740060194193948,0.9470022999372069,-0.3197287485570581,0.017251489210827524,-0.0025733299553394318,-0.010892510414123535,0.0005803294479846954,17.94497518448733,0.0,22.51166926138103,0.0,0.0,0.0,-1,-1.00970458984375,0.060272216796875,0.0131988525390625,768161.72967325,0.0067436834797263145,-0.005638488568365574,-0.0085725924000144,-0.05981905541975729,2024-03-15 12:39:45 +0000
-0.650614869572518,59.40766132872097,0.6045685410499573,-0.06043952330946922,0.794256865978241,0.037469249218702316,0.7949477434158325,-0.6064257025718689,-0.01749514602124691,0.9980185031890869,0.05054771155118942,0.01752808375279891,-0.025847133519274434,0.9469983792899535,-0.31969279105407783,0.017962770241704257,-0.010079335421323776,0.0015433430671691895,-0.0012659989297389984,17.94497518448733,0.0,22.51166926138103,0.0,0.0,0.0,-1,-0.9976654052734375,0.0583343505859375,0.007171630859375,768162.2371090001,0.02215900458395481,-0.008480403572320938,-0.02227243036031723,-0.06047638098253079,2024-03-15 12:39:45 +0000
-0.6490073048275838,59.40766144626606,0.6032718420028687,-0.06095808744430542,0.7952026128768921,0.03694386035203934,0.7958293557167053,-0.6052173376083374,-0.019176060333848,0.9979560971260071,0.052141740918159485,0.01921296824440865,-0.025838976338512943,0.947231272277193,-0.31895303998090574,0.018822699234877997,0.007999883964657784,0.00407487154006958,0.004654649645090103,17.94497510930318,0.011598177466258729,22.545003158971667,0.0,0.0,0.0,-1,-0.995147705078125,0.065826416015625,0.0288848876953125,768162.734596,0.029376786202192307,-0.10515541583299637,0.021565258502960205,-0.06099590265491338,2024-03-15 12:39:46 +0000
-0.646988625750051,59.40766144626606,0.6016148328781128,-0.06231588125228882,0.7963518500328064,0.03614071011543274,0.7968549132347107,-0.603752851486206,-0.022466212511062622,0.9978035688400269,0.05551440268754959,0.022511863416949978,-0.02597804506520376,0.9474980454716959,-0.31803962263742774,0.020575403228460697,-0.0004935190081596375,-0.0041953325271606445,-0.0034475289285182953,17.94497510930318,0.011598177466258729,22.545003158971667,0.0,0.0,0.0,-1,-1.000457763671875,0.0605316162109375,0.0233306884765625,768163.2320831667,0.01203058660030365,0.006530405022203922,0.0173158198595047,-0.062356283001957995,2024-03-15 12:39:46 +0000
-0.6502828779686803,59.407661483398634,0.6041386723518372,-0.06481431424617767,0.7942390441894531,0.036290496587753296,0.7946687340736389,-0.6065207123756409,-0.025185301899909973,0.9975794553756714,0.05931437015533447,0.025241052338529805,-0.026693599732698924,0.9469012529565202,-0.3196371660706595,0.022309526758176386,0.010321935638785362,0.004369676113128662,0.0009204894304275513,17.944975086625284,0.0,22.548905482515693,0.0,0.0,0.0,-1,-0.993194580078125,0.0662384033203125,0.034576416015625,768163.7395201668,-0.032968830317258835,0.005068483296781778,0.029087742790579796,-0.06485977957629625,2024-03-15 12:39:47 +0000
-0.6499405678564188,59.407661483398634,0.6038991212844849,-0.06398479640483856,0.7944884300231934,0.03635191544890404,0.7949564456939697,-0.6061903238296509,-0.024032512679696083,0.9976614713668823,0.05788051337003708,0.024084187607392712,-0.02648852076282274,0.9469829708649186,-0.31945913378373625,0.02162473541462214,0.0031129121780395508,-0.0010873079299926758,0.0022535547614097595,17.944975086625284,0.0,22.548905482515693,0.0,0.0,0.0,-1,-0.99847412109375,0.0657196044921875,0.027587890625,768164.2370072501,-0.006760427728295326,0.0018771764589473605,-0.0025393273681402206,-0.06402853482441345,2024-03-15 12:39:47 +0000
-0.6500375249470955,59.407661483398634,0.6039721369743347,-0.06408807635307312,0.7944245934486389,0.036201417446136475,0.7948744297027588,-0.6062830090522766,-0.024406030774116516,0.9976457357406616,0.0582442581653595,0.024458743441237114,-0.02647665113680823,0.9469616312390889,-0.3195100694626809,0.02181986082916351,0.0020374897867441177,0.00022453069686889648,-0.0016949474811553955,17.944975086625284,0.0,22.548905482515693,0.0,0.0,0.0,-1,-0.9970703125,0.0616607666015625,0.0268096923828125,768164.73449325,0.0065544117242097855,-0.003294108435511589,-0.008625038899481297,-0.06413202857865379,2024-03-15 12:39:48 +0000
-0.650110960880759,59.407661483398634,0.6040272116661072,-0.06417173892259598,0.7943759560585022,0.0362345390021801,0.7948258519172668,-0.6063447594642639,-0.02445390820503235,0.9976392388343811,0.058335788547992706,0.024506866361604776,-0.02650786483288155,0.9469479756711462,-0.31954552472493103,0.02185697989696076,0.0030119512230157852,-0.003932476043701172,-0.0011987686157226562,17.944975086625284,0.0,22.548905482515693,0.0,0.0,0.0,-1,-1.001190185546875,0.0620269775390625,0.0268096923828125,768165.2319807501,-0.0012528484221547842,-0.001299144933000207,-0.0043146428652107716,-0.06421586325439074,2024-03-15 12:39:48 +0000
-0.6501062086969357,59.407661483398634,0.6040297746658325,-0.06400904804468155,0.79438716173172,0.03615567088127136,0.7948359847068787,-0.6063348054885864,-0.024371357634663582,0.9976516962051392,0.05817120522260666,0.024423866767469642,-0.026443970023845624,0.9469523734426581,-0.319542079930439,0.02179163468334242,0.001889057457447052,-0.0018142461776733398,-0.00033417344093322754,17.944975086625284,0.0,22.548905482515693,0.0,0.0,0.0,-1,-0.9998626708984375,0.063201904296875,0.0257568359375,768165.73941675,0.0032749061938375235,0.0031612864695489407,0.004471221938729286,-0.06405283888435302,2024-03-15 12:39:49 +0000
-0.6495232852816657,59.407661483398634,0.6035557389259338,-0.06428873538970947,0.7947247624397278,0.03660514950752258,0.795203685760498,-0.6058651804924011,-0.024053281173110008,0.9976414442062378,0.05806604027748108,0.02410547494519561,-0.02663389242386084,0.9470440969786847,-0.3192620220717997,0.021677797329783616,0.0013373848050832748,-0.003045201301574707,-0.0016667172312736511,17.944975086625284,0.0,22.548905482515693,0.0,0.0,0.0,-1,-1.0006256103515625,0.0634002685546875,0.025360107421875,768166.2369036668,0.003968497738242149,0.0011418800568208098,0.0004901135107502341,-0.06433310325500984,2024-03-15 12:39:49 +0000
-0.6493146586998144,59.407661483398634,0.6034087538719177,-0.06380099058151245,0.7948756217956543,0.03673224523663521,0.7953848838806152,-0.605659544467926,-0.023224880918860435,0.997692346572876,0.057102568447589874,0.023274394525112423,-0.026537273504024933,0.947094597731834,-0.3191519495522602,0.021203649846870464,-0.0016946922987699509,-0.003726661205291748,-3.457069396972656e-05,17.944975086625284,0.0,22.548905482515693,0.0,0.0,0.0,-1,-1.0019073486328125,0.0639190673828125,0.0213470458984375,768166.7343896667,-0.012511711567640305,0.0006462436867877841,0.006107710767537355,-0.06384435295830809,2024-03-15 12:39:50 +0000
-0.6497964805395572,59.407661483398634,0.603779673576355,-0.06411215662956238,0.7945688962936401,0.036401696503162384,0.7950361967086792,-0.6060818433761597,-0.024130966514348984,0.9976509213447571,0.058030929416418076,0.02418307054335317,-0.02653473386068963,0.9470026445112041,-0.3193923153845451,0.021689985187240756,-0.0006934273988008499,-0.0005790591239929199,-0.0019631609320640564,17.944975086625284,0.0,22.548905482515693,0.0,0.0,0.0,-1,-0.9990081787109375,0.0620574951171875,0.02374267578125,768167.231876875,0.0064123766496777534,-0.001050697173923254,-0.004490314982831478,-0.06415615765601738,2024-03-15 12:39:50 +0000
-0.6499163013120608,59.407661483398634,0.6038785576820374,-0.0640166848897934,0.7945014238357544,0.03626645728945732,0.7949599623680115,-0.606178343296051,-0.024217186495661736,0.9976549744606018,0.058046117424964905,0.024269343718444275,-0.026474343971742875,0.9469841973179136,-0.31945013666502864,0.021717179315361983,0.0024399571120738983,-0.0035504698753356934,0.0004668980836868286,17.944975086625284,0.0,22.548905482515693,0.0,0.0,0.0,-1,-1.000579833984375,0.0634918212890625,0.026214599609375,768167.7393128751,-0.00271408399567008,0.0014342364156618714,0.0009546394576318562,-0.06406048822607965,2024-03-15 12:39:51 +0000
-0.6499328075721444,59.407661483398634,0.6038979291915894,-0.06385694444179535,0.7944996356964111,0.03639741986989975,0.7949770092964172,-0.6061729192733765,-0.023791074752807617,0.9976754188537598,0.057610347867012024,0.023841991187941763,-0.02646661362238482,0.9469889653740708,-0.31945218922403873,0.021489538885933746,0.0016453620046377182,-0.003957271575927734,0.0010996684432029724,17.944975086625284,0.0,22.548905482515693,0.0,0.0,0.0,-1,-1.001861572265625,0.06512451171875,0.0256805419921875,768168.236798875,-0.0006632457952946424,0.00295264832675457,0.0062172384932637215,-0.06390042075541955,2024-03-15 12:39:51 +0000
-0.6498404422762907,59.407661483398634,0.6038227081298828,-0.06390316784381866,0.7945530414581299,0.03622405230998993,0.7950117588043213,-0.6061133146286011,-0.024145692586898804,0.9976639747619629,0.05791758745908737,0.02419751014873168,-0.026432764254612145,0.946999150898433,-0.31941317026342336,0.021664033450609837,0.0027708467096090317,-0.0016493797302246094,-0.001403219997882843,17.944975086625284,0.0,22.548905482515693,0.0,0.0,0.0,-1,-0.9995574951171875,0.0633392333984375,0.0277557373046875,768168.7342848751,-0.005174494814127684,0.001672159181907773,0.004474466200917959,-0.06394673858857385,2024-03-15 12:39:52 +0000
-0.6493958015931883,59.407661483398634,0.6034836769104004,-0.06353160738945007,0.794840395450592,0.03638515993952751,0.7953275442123413,-0.6057268381118774,-0.023436063900589943,0.9977046251296997,0.057110726833343506,0.023485662526902585,-0.026374841136596647,0.947084111674565,-0.3191930167093404,0.021261782636231696,0.0005355328321456909,-0.002280116081237793,-0.0014436542987823486,17.944975086625284,0.0,22.548905482515693,0.0,0.0,0.0,-1,-1.0014495849609375,0.0633544921875,0.0241241455078125,768169.23177175,-0.009592459537088871,-0.00038341642357409,0.004623748362064362,-0.06357442728040719,2024-03-15 12:39:52 +0000
-0.649467106558693,59.407661483398634,0.6035376191139221,-0.06360404193401337,0.7947936654090881,0.036866478621959686,0.7953234314918518,-0.6057589650154114,-0.022731488570570946,0.9977163076400757,0.05659555643796921,0.022779578479526365,-0.026521159503468707,0.947078898571571,-0.31921748691511953,0.020939926164167188,0.003300042822957039,-0.0011240243911743164,0.001962922513484955,17.944975086625284,0.0,22.548905482515693,0.0,0.0,0.0,-1,-1.0003204345703125,0.065643310546875,0.0259246826171875,768169.7392077501,-0.005551567301154137,0.0007521327352151275,0.009445427916944027,-0.06364700528597453,2024-03-15 12:39:53 +0000
